[{"time":"12/02 14:49","latitude":"24.49","longitude":"121.63","amgnitude":"3.5","depth":" 44.7","location":"宜蘭縣政府南偏西方  30.2  公里 (位於宜蘭縣南澳鄉)\n","url":"ECL1202144935.htm"},{"time":"12/02 01:34","latitude":"24.38","longitude":"121.96","amgnitude":"4.1","depth":" 23.9","location":"宜蘭縣政府南偏東方  44.1  公里 (位於臺灣東部海域)\n","url":"ECL1202013441.htm"},{"time":"11/28 18:46","latitude":"23.19","longitude":"120.59","amgnitude":"3.1","depth":"  6.6","location":"臺南市政府東偏北方  47.2  公里 (位於臺南市南化區)\n","url":"ECL1128184631.htm"},{"time":"11/27 02:07","latitude":"25.13","longitude":"121.59","amgnitude":"2.8","depth":"  6.8","location":"臺北市政府北偏東方  10.5  公里 (位於臺北市士林區)\n","url":"ECL1127020728.htm"},{"time":"11/25 09:32","latitude":"24.03","longitude":"121.75","amgnitude":"4.4","depth":"  6.5","location":"花蓮縣政府東偏北方  14.1  公里 (位於臺灣東部海域)\n","url":"EC1125093244061.htm"},{"time":"11/23 18:56","latitude":"22.95","longitude":"120.15","amgnitude":"2.9","depth":" 14.4","location":"臺南市政府西南方  6.4  公里 (位於臺南市近海)\n","url":"ECL1123185629.htm"},{"time":"11/19 17:15","latitude":"22.79","longitude":"121.05","amgnitude":"3.7","depth":"  5.0","location":"臺東縣政府西偏北方  11.1  公里 (位於臺東縣卑南鄉)\n","url":"ECL1119171537.htm"},{"time":"11/18 02:56","latitude":"24.53","longitude":"121.71","amgnitude":"4.1","depth":" 61.2","location":"宜蘭縣政府南偏西方  23.3  公里 (位於宜蘭縣南澳鄉)\n","url":"ECL1118025641.htm"},{"time":"11/12 02:11","latitude":"24.88","longitude":"121.93","amgnitude":"4.4","depth":"109.7","location":"宜蘭縣政府東北方  23.3  公里 (位於宜蘭縣近海)\n","url":"ECL1112021144.htm"},{"time":"11/12 00:54","latitude":"21.07","longitude":"121.72","amgnitude":"4.7","depth":"106.6","location":"臺東縣政府南偏東方  195.7  公里 (位於臺灣南部海域)\n","url":"ECL1112005447.htm"},{"time":"11/11 00:01","latitude":"23.19","longitude":"121.36","amgnitude":"3.1","depth":" 16.9","location":"臺東縣政府北偏東方  52.8  公里 (位於臺東縣成功鎮)\n","url":"ECL1111000131.htm"},{"time":"11/10 08:13","latitude":"23.94","longitude":"121.95","amgnitude":"4.3","depth":" 35.5","location":"花蓮縣政府東方  33.9  公里 (位於臺灣東部海域)\n","url":"ECL1110081343.htm"},{"time":"11/09 07:47","latitude":"24.81","longitude":"121.83","amgnitude":"3.6","depth":" 82.6","location":"宜蘭縣政府東北方  11.4  公里 (位於宜蘭縣近海)\n","url":"ECL1109074736.htm"},{"time":"11/08 15:29","latitude":"24.54","longitude":"121.89","amgnitude":"3.9","depth":" 36.5","location":"宜蘭縣政府南偏東方  24.2  公里 (位於宜蘭縣近海)\n","url":"ECL1108152939.htm"},{"time":"11/07 16:56","latitude":"24.16","longitude":"120.83","amgnitude":"3.0","depth":" 30.9","location":"臺中市政府東方  15.6  公里 (位於臺中市新社區)\n","url":"ECL1107165630.htm"}]